     3.00           OBSERVATION DATA    M: Mixed            RINEX VERSION / TYPE
CONVBIN 2.4.3                           20240414 235942 UTC PGM / RUN BY / DATE 
format: u-blox UBX                                          COMMENT             
log: /home/regis/git/gnsspwv/obsdata/VERT00CHL/2024-04-14/VECOMMENT             
{self.marker}                                               MARKER NAME         
                                                            MARKER NUMBER       
GEODETIC                                                    MARKER TYPE         
{self.observer}     {self.institution}                      OBSERVER / AGENCY   
UNKNOWN             UBLOX-ZED-F9P                           REC # / TYPE / VERS 
UNKNOWN             TWIVSP6037L                             ANT # / TYPE        
  1713381.0000 -5047934.0000 -3490983.0000                  APPROX POSITION XYZ 
        0.0000        0.0000        0.0000                  ANTENNA: DELTA H/E/N
G    8 C1C L1C D1C S1C C2L L2L D2L S2L                      SYS / # / OBS TYPES 
R    8 C1C L1C D1C S1C C2C L2C D2C S2C                      SYS / # / OBS TYPES 
E    8 C1C L1C D1C S1C C7Q L7Q D7Q S7Q                      SYS / # / OBS TYPES 
S    4 C1C L1C D1C S1C                                      SYS / # / OBS TYPES 
  2024    04    14    23    45   00.0050000     GPS         TIME OF FIRST OBS   
  2024    04    14    23    59   30.0060000     GPS         TIME OF LAST OBS    
                                                            END OF HEADER       
> 2024 04 14 23 45 00.0050000  0 28                     
S33  41298906.541   217027287.8611       -773.873          42.000  
E33  28966867.293   152221918.0961         53.269          34.000    28966868.073   116637619.1591         40.894          37.000  
G13  24501956.758   128758511.3681      -4356.312          44.000                                                                  
G15  23316319.763   122528068.1191      -3222.102          49.000    23316319.170    95476442.6351      -2510.857          44.000  
G17  25246974.361   132673673.6131      -4076.825          44.000    25246968.479   103382372.5271      -3176.990          37.000  
R14  22455209.412   119698967.1761      -2039.087          54.000    22455208.011    93099280.2511      -1586.047          51.000  
R17  23345540.825   124927121.6881       2918.517          51.000    23345539.295    97165748.2151       2269.813          47.000  
R05  22311907.072   119269960.1801      -1400.025          51.000    22311905.508    92765537.6171      -1088.898          50.000  
R04  23186151.442   124160721.9821      -4537.916          48.000    23186152.029    96569452.8401      -3529.509          43.000  
G19  23715181.282   124624298.5471      -3179.264          47.000                                                                  
G22  26007832.626                       -3836.072          28.000                                                                  
G06  25509626.839   134054160.7661       1133.883          44.000    25509627.871   104457831.2821        883.613          43.000  
S31  40346639.809   212023083.7481       -773.640          44.000  
E03  28633892.066                        1504.575          29.000    28633888.407   115296849.6281       1153.120          37.000  
R15  22231878.924   118800626.3011        211.487          52.000    22231875.509    92400655.9321        164.514          49.000  
R24  22684472.222   121304388.4431       -373.738          50.000    22684468.087    94347876.8051       -290.707          47.000  
E31  27129787.827   142568027.9161      -2572.712          43.000    27129789.631   109240474.0861      -1971.201          48.000  
E09  26647955.577   140035932.3941      -3325.569          47.000    26647960.888   107300270.2751      -2548.151          50.000  
G11  26324659.234   138337110.5871       1882.800          44.000    26324677.425   107795248.1181       1467.021          43.000  
E24  25416106.554   133562656.6731      -1002.069          48.000    25416106.377   102340274.7801       -767.881          51.000  
G24  22304408.536   117210556.2231        368.896          49.000    22304405.789    91332971.3771        287.402          47.000  
G12  23053182.394   121145571.9881        149.940          47.000    23053179.135    94399267.7201        116.801          45.000  
E05  24149827.389   126908271.1921       -782.508          47.000    24149829.970    97241443.9211       -599.722          50.000  
G25  24833526.315   130501211.9371       1209.309          43.000    24833528.134   101689307.6641        942.084          40.000  
E10  29609357.052                3       1840.458          25.000                                                                  
E25  27479668.632   144406870.3701        743.633          45.000    27479674.312   110649556.1841        569.797          47.000  
E12  29105504.179   152950696.8981       1644.231          39.000    29105512.678   117196172.0031       1259.476          45.000  
E14  20417593.153   107295274.6191        543.430          47.000    20417597.362    82213304.4701        416.425          54.000  
> 2024 04 14 23 45 30.0050000  0 28                     
S33  41303323.135   217050498.839        -773.321          42.000  
E33  28966596.291   152220493.155          41.188          32.000    28966597.496   116636527.332          31.523          37.000  
G13  24526843.121   128889286.515       -4362.224          44.000                                                                  
G15  23334746.929   122624902.571       -3233.538          49.000    23334746.535    95551897.860       -2519.862          44.000  
G17  25270272.559   132796107.719       -4085.376          44.000    25270266.929   103477775.749       -3183.673          36.000  
R14  22466694.343   119760187.587       -2042.291          54.000    22466693.006    93146896.117       -1588.391          51.000  
R17  23329205.785   124839715.481        2908.457          50.000    23329205.328    97097765.999        2262.116          47.000  
R23  25377852.677                3      -3670.954          11.000                                                                  
R05  22319836.257   119312348.538       -1425.910          51.000    22319835.284    92798506.292       -1109.113          49.000  
R04  23211603.168   124297012.802       -4548.125          48.000    23211601.954    96675456.329       -3537.480          41.000  
G19  23733370.016   124719877.641       -3192.741          48.000                                                                  
G06  25503180.711   134020286.045        1124.277          43.000    25503181.391   104431435.541         875.953          43.000  
S31  40351053.468   212046277.743        -772.960          44.000  
R15  22230700.238   118794335.866         207.849          52.000    22230698.366    92395763.415         161.597          50.000  
R24  22686640.128   121315982.154        -399.326          51.000    22686636.123    94356894.179        -310.607          46.000  
E31  27144472.646   142645200.338       -2572.260          42.000    27144475.236   109299606.225       -1971.034          48.000  
E09  26666960.415   140135803.850       -3332.811          46.000    26666966.270   107376794.977       -2553.718          51.000  
G11  26313907.348   138280619.194        1883.429          42.000    26313925.189   107751230.747        1467.385          43.000  
E24  25421837.795   133592775.316       -1005.838          48.000    25421837.573   102363352.736        -770.684          51.000  
G24  22302329.750   117199634.706         359.229          49.000    22302327.246    91324461.122         279.932          47.000  
G12  23052348.634   121141187.676         142.238          47.000    23052344.506    94395851.440         110.715          45.000  
E05  24154333.212   126931950.518        -796.215          47.000    24154336.224    97259587.805        -610.090          51.000  
G25  24826635.970   130465006.377        1204.708          41.000    24826638.601   101661095.763         938.598          40.000  
E10  29598845.369                        1843.632          28.000    29598877.246   119182412.7441       1412.278          32.000  
E25  27475433.887   144384616.276         739.812          45.000    27475439.743   110632504.513         566.892          47.000  
E12  29096124.572   152901405.469        1641.873          40.000    29096131.408   117158403.808        1257.993          44.000  
E14  20414598.341   107279530.865         505.932          49.000    20414601.391    82201241.275         387.667          54.000  
E03                                                                  28625318.975   115262345.254        1147.061          37.000  
> 2024 04 14 23 46 00.0050000  0 27                     
S33  41307738.401   217073700.914        -773.354          42.000  
E33  28966393.777                          29.384          29.000    28966394.783   116635712.218          22.349          36.000  
G13  24551765.854   129020244.556       -4368.393          45.000                                                                  
G15  23353238.827   122722081.392       -3245.020          49.000    23353238.671    95627621.401       -2528.711          44.000  
G17  25293621.526   132918806.000       -4094.257          44.000    25293615.311   103573384.834       -3190.326          36.000  
R14  22478197.828   119821510.094       -2045.837          54.000    22478196.686    93194591.401       -1591.254          50.000  
R17  23312930.170   124752622.348        2897.811          51.000    23312929.238    97030027.272        2253.811          46.000  
R05  22327911.736   119355518.199       -1451.996          51.000    22327910.991    92832082.689       -1129.376          49.000  
R04  23237111.670   124433615.639       -4558.455          47.000    23237112.094    96781702.414       -3545.506          42.000  
G19  23751636.674   124815870.585       -3206.758          47.000                                                                  
G06  25496791.633   133986710.743        1114.194          43.000    25496793.655   104405273.107         868.118          45.000  
S31  40355465.603   212069463.598        -772.794          44.000  
R15  22229544.438   118788161.291         203.882          52.000    22229542.068    92390960.999         158.630          49.000  
R24  22688953.048   121328349.776        -425.175          51.000    22688949.103    94366513.494        -330.610          47.000  
E31  27159156.726   142722365.635       -2571.917          42.000    27159158.943   109358732.872       -1970.814          47.000  
E09  26686007.378   140235895.969       -3340.152          46.000    26686013.302   107453488.756       -2559.267          51.000  
G11  26303153.869   138224116.737        1883.153          40.000    26303171.536   107707204.679        1467.784          43.000  
E24  25427591.708   133623011.105       -1009.827          48.000    25427591.289   102386520.446        -773.722          51.000  
G24  22300306.949   117189006.708         349.323          49.000    22300304.782    91316179.595         272.284          47.000  
G12  23051558.854   121137039.581         134.489          47.000    23051554.820    94392619.219         104.666          44.000  
E05  24158918.460   126956043.694        -809.941          47.000    24158921.222    97278048.804        -620.629          51.000  
G25  24819773.272   130428939.620        1199.979          43.000    24819775.498   101632992.021         934.908          40.000  
E10  29588314.628                        1846.277          30.000    29588346.255   119140007.868        1414.431          34.000  
E25  27471221.834   144362481.588         735.780          46.000    27471227.575   110615544.350         563.864          48.000  
E12  29086757.310   152852179.411        1639.790          40.000    29086763.308   117120685.701        1256.351          43.000  
E14  20411818.088   107264919.518         468.171          50.000    20411820.230    82190045.746         358.698          53.000  
E03                                                                  28616794.433   115228020.132        1141.104          37.000  
> 2024 04 14 23 46 30.0050000  0 28                     
S33  41312151.455   217096892.216        -772.920          42.000  
E33  28966260.793   152218725.126          17.308          33.000    28966261.147   116635172.648          13.576          37.000  
G13  24576721.466   129151380.065       -4374.095          46.000                                                                  
G15  23371796.029   122819599.488       -3256.273          49.000    23371796.159    95703609.323       -2537.347          44.000  
G17  25317019.304   133041762.902       -4102.728          43.000    25317014.061   103669195.417       -3197.034          36.000  
R14  22489721.306   119882931.809       -2049.014          54.000    22489718.295    93242363.857       -1593.775          50.000  
R17  23296713.574   124665844.168        2887.299          52.000    23296712.726    96962533.475        2245.628          47.000  
R23  25419202.910                3      -3712.049          13.000                                                                  
R05  22336132.836   119399464.824       -1477.771          51.000    22336132.358    92866263.358       -1149.481          50.000  
R04  23262680.136   124570522.580       -4568.613          47.000    23262679.496    96888185.052       -3553.286          44.000  
G19  23769981.365   124912272.290       -3220.072          47.000                                                                  
G06  25490458.845   133953435.034        1104.423          42.000    25490461.126   104379344.154         860.484          44.000  
S31  40359875.577   212092638.584        -772.298          44.000  
R15  22228409.894   118782099.761         200.189          52.000    22228407.796    92386246.529         155.695          50.000  
R24  22691409.608   121341489.576        -450.855          51.000    22691407.106    94376733.383        -350.692          48.000  
E31  27173838.863   142799520.551       -2571.683          43.000    27173840.960   109417851.575       -1970.592          47.000  
E09  26705096.397   140336204.421       -3347.209          46.000    26705101.429   107530348.289       -2564.758          50.000  
G11  26292399.039   138167603.319        1884.046          42.000    26292414.612   107663170.070        1468.045          40.000  
E24  25433367.622   133653360.468       -1013.468          49.000    25433366.577   102409775.196        -776.619          51.000  
G24  22298340.280   117178671.353         339.551          49.000    22298337.846    91308126.096         264.514          47.000  
G12  23050813.372   121133124.058         126.608          46.000    23050809.390    94389568.236          98.685          44.000  
E05  24163581.540   126980548.162        -823.767          48.000    24163584.438    97296824.948        -631.126          51.000  
G25  24812935.916   130393008.621        1195.287          44.000    24812938.295   101604994.032         931.619          41.000  
E10  29577765.833   155432210.7341       1849.382          33.000    29577796.569   119097530.853        1417.187          35.000  
E25  27467032.059   144340463.199         732.038          46.000    27467037.071   110598673.280         560.969          47.000  
E12  29077401.569   152803018.174        1637.637          40.000    29077407.374   117083017.271        1254.822          43.000  
E14  20409252.106   107251438.941         430.569          50.000    20409254.687    82179716.635         329.863          53.000  
E03                                                                  28608313.203   115193873.472        1135.332          37.000  
> 2024 04 14 23 47 00.0050000  0 27                     
S33  41316562.194   217120071.484        -772.537          42.000  
E33  28966196.449   152218380.278           5.087          35.000    28966195.113   116634908.402           4.128          37.000  
G13  24601709.197   129282689.304       -4379.920          45.000                                                                  
G15  23390417.468   122917452.600       -3267.380          49.000    23390418.084    95779858.288       -2545.877          45.000  
G17  25340465.518   133164974.031       -4111.072          43.000    25340459.536   103765204.150       -3203.699          36.000  
R14  22501261.514   119944451.819       -2052.408          54.000    22501260.867    93290212.745       -1596.245          51.000  
R17  23280555.649   124579384.406        2876.548          50.000    23280554.890    96895287.343        2237.217          46.000  
R05  22344499.422   119444185.196       -1503.558          51.000    22344497.544    92901045.822       -1169.379          49.000  
R04  23288299.816   124707727.787       -4578.610          46.000    23288302.265    96994899.633       -3561.047          43.000  
G19  23788402.648   125009078.598       -3233.669          47.000                                                                  
G06  25484183.451   133920460.499        1093.893          42.000    25484185.349   104353649.857         852.538          43.000  
S31  40364283.315   212115801.105        -772.003          44.000  
R15  22227296.311   118776149.825         196.417          52.000    22227294.419    92381618.859         152.783          49.000  
R24  22694011.625   121355401.307        -476.607          51.000    22694007.776    94387553.663        -370.701          47.000  
E31  27188519.622   142876663.276       -2571.298          43.000    27188521.030   109476960.947       -1970.176          47.000  
E09  26724224.891   140436726.124       -3354.300          46.000    26724230.504   107607371.225       -2570.194          51.000  
G11  26281640.939   138111080.582        1883.909          42.000    26281656.735   107619128.161        1468.348          40.000  
E24  25439163.881   133683821.253       -1017.318          49.000    25439163.066   102433115.310        -779.485          51.000  
G24  22296428.938   117168629.091         329.700          49.000    22296427.187    91300300.986         256.995          47.000  
G12  23050112.099   121129438.988         118.862          47.000    23050108.293    94386696.842          92.747          44.000  
E05  24168322.758   127005462.614        -837.344          48.000    24168325.203    97315915.230        -641.625          51.000  
G25  24806123.881   130357211.655        1190.966          43.000    24806125.139   101577100.516         927.977          39.000  
E10  29567199.637   155376680.969        1852.416          37.000    29567229.702   119054982.097        1419.232          39.000  
E25  27462863.499   144318559.272         728.038          45.000    27462868.698   110581889.912         557.953          47.000  
E12  29068058.888   152753922.576        1635.301          40.000    29068064.109   117045399.098        1253.092          43.000  
E14  20406901.990   107239088.750         392.675          50.000    20406904.318    82170253.654         300.926          53.000  
E03                                                                  28599876.465   115159905.453        1129.454          36.000  
> 2024 04 14 23 47 30.0050000  0 27                     
S33  41320971.809   217143243.185        -772.007          42.000  
E33  28966198.887   152218400.437          -6.055          34.000    28966198.879   116634923.919          -4.780          37.000  
G13  24626730.537   129414174.169       -4385.476          44.000                                                                  
G15  23409102.710   123015642.554       -3278.217          50.000    23409102.855    95856369.738       -2554.444          44.000  
G17  25363960.484   133288441.064       -4119.409          43.000    25363955.732   103861412.302       -3210.284          38.000  
R14  22512821.262   120006074.734       -2055.373          54.000    22512820.399    93338141.703       -1598.639          50.000  
R17  23264459.780   124493252.563        2865.885          50.000    23264459.729    96828296.226        2229.124          47.000  
R05  22353010.390   119489682.722       -1529.212          51.000    22353007.907    92936432.762       -1189.264          48.000  
R04  23313979.685   124845231.178       -4588.170          47.000    23313981.538    97101846.101       -3568.320          45.000  
G19  23806900.887   125106291.812       -3246.847          46.000                                                                  
G06  25477967.594   133887794.566        1084.045          44.000    25477968.855   104328196.033         844.745          42.000  
S31  40368689.295   212138955.359        -771.213          44.000  
R15  22226205.181   118770315.534         192.877          53.000    22226202.815    92377081.120         150.049          50.000  
R24  22696759.068   121370090.717        -502.259          51.000    22696755.561    94398978.809        -390.569          48.000  
E31  27203195.648   142953797.885       -2570.733          41.000    27203198.748   109536064.089       -1969.591          46.000  
E09  26743395.001   140537464.002       -3361.184          47.000    26743400.119   107684559.810       -2575.406          51.000  
G11  26270882.873   138054556.045        1884.413          41.000    26270899.516   107575084.831        1468.485          42.000  
E24  25444981.533   133714397.222       -1020.594          48.000    25444981.400   102456543.706        -782.084          51.000  
G24  22294575.256   117158886.376         320.062          48.000    22294573.420    91292709.283         249.451          47.000  
G12  23049455.266   121125988.277         111.489          48.000    23049452.029    94384008.040          86.880          45.000  
E05  24173141.696   127030791.785        -850.751          47.000    24173144.811    97335323.273        -651.915          50.000  
G25  24799337.799   130321553.075        1186.608          42.000    24799339.402   101549314.790         924.422          40.000  
E10  29556614.900   155321064.111        1855.641          40.000    29556646.218   119012366.669        1422.095          42.000  
E25  27458717.142   144296773.973         724.636          45.000    27458722.880   110565197.463         555.193          47.000  
E12  29058730.246   152704899.306        1633.235          40.000    29058735.270   117007836.358        1251.611          44.000  
E14  20404768.018   107227874.429         355.224          50.000    20404770.468    82161661.018         272.251          53.000  
E03                                                                  28591485.848   115126120.944        1123.440          35.000  
> 2024 04 14 23 48 00.0050000  0 27                     
S33  41325376.508   217166390.244        -771.289          42.000  
E33  28966268.830   152218772.103         -18.448          35.000    28966269.577   116635208.741         -13.953          38.000  
G13  24651782.815   129545817.081       -4390.824          44.000                                                                  
G15  23427848.272   123114152.136       -3289.068          49.000    23427848.339    95933130.250       -2562.965          44.000  
G17  25387500.623   133412145.964       -4127.545          42.000    25387496.399   103957805.752       -3216.083          39.000  
R14  22524399.053   120067785.721       -2058.749          54.000    22524397.882    93386139.155       -1601.172          51.000  
R17  23248423.795   124407438.329        2854.956          50.000    23248423.718    96761552.178        2220.516          49.000  
R05  22361664.709   119535940.562       -1554.785          52.000    22361662.496    92972411.016       -1209.076          50.000  
R04  23339709.418   124983013.009       -4597.404          46.000    23339711.571    97209009.092       -3575.476          44.000  
G19  23825474.192   125203894.512       -3259.957          46.000                                                                  
G06  25471808.828   133855425.455        1073.871          46.000    25471808.409   104302973.460         836.786          41.000  
S31  40373091.002   212162087.600        -770.827          44.000  
E03  28583142.814   150205442.3671       1459.258          32.000    28583138.364   115092509.818        1117.262          34.000  
R15  22225132.570   118764582.264         189.374          53.000    22225129.813    92372621.972         147.192          50.000  
R24  22699648.382   121385543.987        -528.022          51.000    22699645.224    94410998.068        -410.702          48.000  
E31  27217870.779   143030909.194       -2570.048          42.000    27217873.339   109595149.396       -1969.285          47.000  
E09  26762602.623   140638401.616       -3367.919          47.000    26762608.662   107761901.433       -2580.665          51.000  
G11  26260122.939   137998017.903        1884.728          43.000    26260139.430   107531031.004        1468.316          44.000  
E24  25450819.664   133745072.893       -1024.281          49.000    25450818.909   102480048.479        -784.851          51.000  
G24  22292775.403   117149430.244         310.266          48.000    22292773.887    91285340.891         241.797          47.000  
G12  23048839.756   121122756.390         104.006          47.000    23048836.627    94381489.762          81.007          44.000  
E05  24178038.363   127056521.032        -864.425          47.000    24178040.746    97355037.855        -662.321          50.000  
G25  24792575.562   130286017.690        1182.319          42.000    24792577.649   101521625.081         920.955          41.000  
E10  29546010.911   155265347.377        1858.727          42.000    29546043.458   118969674.808        1424.363          44.000  
E25  27454591.275   144275092.131         720.983          45.000    27454597.242   110548584.277         552.394          48.000  
E12  29049411.729   152655935.888        1631.121          39.000    29049417.302   116970319.428        1249.761          44.000  
E14  20402847.740   107217782.086         317.549          50.000    20402849.978    82153928.109         243.289          53.000  
> 2024 04 14 23 48 30.0050000  0 27                     
S33  41329778.957   217189525.560        -771.297          42.000  
E33  28966404.480   152219504.848         -30.669          32.000    28966408.653   116635770.284         -23.533          37.000  
G13  24676865.510   129677623.881       -4396.549          44.000                                                                  
G15  23446656.194   123212987.413       -3300.258          48.000    23446656.156    96010144.545       -2571.675          44.000  
G17  25411087.211   133536094.548       -4135.962          42.000    25411082.679   104054389.124       -3223.035          39.000  
R14  22535994.064   120129593.899       -2062.242          55.000    22535992.226    93434212.196       -1603.961          50.000  
R17  23232448.285   124321954.954        2843.702          50.000    23232448.049    96695065.458        2211.752          48.000  
R05  22370462.166   119582965.904       -1580.603          51.000    22370460.479    93008986.197       -1229.437          50.000  
R04  23365493.261   125121077.515       -4607.101          49.000    23365494.642    97316391.999       -3583.339          45.000  
G19  23844123.699   125301892.682       -3273.483          47.000                                                                  
G06  25465708.037   133823364.532        1063.220          45.000    25465707.864   104277991.051         828.564          42.000  
S31  40377490.280   212185205.733        -770.556          44.000  
E03  28574832.529                        1449.222          32.000    28574836.404   115059079.911        1111.317          34.000  
R15  22224079.632   118758957.990         185.370          52.000    22224077.156    92368247.595         144.135          50.000  
R24  22702683.209   121401770.408        -554.100          51.000    22702678.986    94423618.635        -430.947          48.000  
E31  27232542.503   143108005.321       -2569.827          42.000    27232543.618   109654223.034       -1969.158          46.000  
E09  26781849.498   140739545.872       -3375.300          46.000    26781855.909   107839401.377       -2586.118          51.000  
G11  26249362.350   137941477.683        1884.462          45.000    26249378.974   107486975.513        1468.396          44.000  
E24  25456677.653   133775856.011       -1028.178          49.000    25456676.560   102503635.570        -787.821          51.000  
G24  22291032.957   117140271.125         299.988          49.000    22291030.873    91278203.911         233.710          46.000  
G12  23048268.146   121119751.352          95.967          48.000    23048264.201    94379148.204          75.007          44.000  
E05  24183012.825   127082658.962        -878.230          47.000    24183014.250    97375065.609        -673.019          49.000  
G25  24785838.004   130250613.770        1177.833          42.000    24785839.894   101494037.798         917.793          41.000  
E10  29535390.983   155209541.379        1861.416          44.000    29535423.939   118926914.646        1426.288          46.000  
E25  27450486.460   144253521.918         716.775          45.000    27450492.434   110532056.621         549.291          48.000  
E12  29040108.229   152607043.063        1628.312          41.000    29040113.278   116932856.575        1247.680          45.000  
E14  20401142.162   107208821.047         279.606          50.000    20401144.606    82147062.040         214.181          54.000  
> 2024 04 14 23 49 00.0050000  0 27                     
S33  41334180.858   217212658.538        -771.154          42.000  
E33  28966618.949   152220613.496         -43.139          35.000    28966619.233   116636619.785         -33.165          37.000  
G13  24701981.767   129809605.174       -4402.328          44.000                                                                  
G15  23465527.977   123312159.311       -3311.280          48.000    23465529.225    96087421.111       -2580.051          45.000  
G17  25434722.900   133660298.009       -4144.250          42.000    25434718.466   104151171.070       -3229.370          40.000  
R14  22547609.686   120191513.039       -2065.789          55.000    22547608.548    93482371.524       -1606.758          50.000  
R17  23216538.482   124236821.323        2831.883          51.000    23216537.780    96628850.741        2202.603          48.000  
R05  22379404.572   119630770.528       -1606.464          51.000    22379402.526    93046167.516       -1249.475          50.000  
R04  23391330.425   125259433.508       -4616.672          50.000    23391333.868    97424001.590       -3590.765          45.000  
G19  23862849.550   125400297.088       -3286.916          46.000                                                                  
G06  25459668.672   133791628.244        1052.490          44.000    25459669.146   104253261.636         819.934          42.000  
S31  40381889.377   212208322.662        -770.756          44.000  
E03  28566580.540   150118436.424        1441.649          31.000    28566582.352   115025842.943        1104.571          34.000  
R15  22223049.898   118753456.940         181.342          52.000    22223047.425    92363969.049         141.016          50.000  
R24  22705864.923   121418785.119        -580.251          51.000    22705860.964    94436852.389        -451.488          47.000  
E31  27247213.655   143185099.404       -2569.882          42.000    27247214.452   109713295.111       -1968.970          46.000  
E09  26801137.274   140840908.646       -3382.443          45.000    26801144.765   107917068.762       -2591.639          51.000  
G11  26238604.577   137884951.945        1883.912          45.000    26238620.732   107442931.295        1467.815          44.000  
E24  25462558.474   133806759.365       -1032.070          49.000    25462557.237   102527314.787        -790.825          51.000  
G24  22289349.564   117131424.402         289.630          48.000    22289347.766    91271310.373         225.537          46.000  
G12  23047742.234   121116985.538          88.254          48.000    23047738.663    94376993.058          68.953          44.000  
E05  24188066.861   127109219.266        -892.517          47.000    24188068.405    97395416.987        -683.707          49.000  
G25  24779127.666   130215354.543        1172.780          42.000    24779130.519   101466563.317         914.040          42.000  
E10  29524757.225   155153661.684        1863.875          43.000    29524790.011   118884098.124        1428.235          47.000  
E25  27446406.373   144232076.500         712.779          46.000    27446411.228   110515624.567         546.175          48.000  
E12  29030818.762   152558236.527        1625.364          40.000    29030825.491   116895459.843        1245.372          45.000  
E14  20399654.397   107201005.630         241.565          50.000    20399656.847    82141073.764         185.042          53.000  
> 2024 04 14 23 49 30.0050000  0 27                     
S33  41338582.017   217235786.725        -770.781          42.000  
E33  28966899.497   152222093.302         -54.928          34.000    28966901.322   116637753.660         -42.491          37.000  
G13  24727129.689   129941753.068       -4407.574          43.000                                                                  
G15  23484462.227   123411659.331       -3322.063          47.000    23484463.277    96164953.363       -2588.603          44.000  
G17  25458404.391   133784747.538       -4152.405          41.000    25458400.453   104248144.735       -3235.797          41.000  
R14  22559244.357   120253537.679       -2069.156          54.000    22559243.244    93530612.913       -1609.240          49.000  
R17  23200693.839   124152036.009        2820.405          51.000    23200694.028    96562906.962        2193.568          48.000  
R05  22388491.723   119679346.885       -1632.037          51.000    22388489.712    93083949.090       -1269.427          49.000  
R04  23417221.446   125398070.677       -4625.819          50.000    23417223.866    97531829.838       -3597.920          47.000  
G19  23881650.785   125499099.447       -3299.904          46.000                                                                  
G06  25453689.765   133760213.719        1041.766          43.000    25453691.193   104228782.935         811.853          42.000  
S31  40386287.232   212231434.211        -770.066          45.000  
E03  28558373.789   150075254.9521       1433.713          33.000    28558375.108   114992795.750        1098.293          32.000  
R15  22222042.807   118748072.708         177.606          53.000    22222039.157    92359781.350         138.196          50.000  
R24  22709193.290   121436583.171        -606.228          50.000    22709189.333    94450695.314        -471.540          48.000  
E31  27261880.854   143262185.187       -2569.312          42.000    27261882.794   109772360.864       -1968.545          45.000  
E09  26820467.331   140942482.497       -3389.228          46.000    26820473.851   107994897.874       -2596.946          52.000  
G11  26227849.269   137828437.950        1883.549          45.000    26227864.609   107398896.178        1467.714          45.000  
E24  25468461.072   133837776.432       -1035.738          49.000    25468459.717   102551081.134        -793.570          51.000  
G24  22287724.536   117122886.163         279.498          48.000    22287722.464    91264657.189         217.773          46.000  
G12  23047260.352   121114453.099          80.580          47.000    23047256.982    94375019.775          62.909          44.000  
E05  24193199.811   127136196.173        -906.007          47.000    24193202.458    97416087.598        -694.266          50.000  
G25  24772445.018   130180233.974        1168.439          44.000    24772448.055   101439196.863         910.391          42.000  
E10  29514108.570   155097704.463        1866.542          43.000    29514141.077   118841222.344        1430.210          45.000  
E25  27442348.598   144210749.649         708.878          47.000    27442352.605   110499283.344         543.271          48.000  
E12  29021547.066   152509512.817        1622.879          41.000    29021553.109   116858126.581        1243.455          45.000  
E14  20398385.266   107194330.694         203.467          51.000    20398386.316    82135959.343         155.984          53.000  
> 2024 04 14 23 50 00.0050000  0 27                     
S33  41342981.215   217258904.117        -770.735          43.000  
E33  28967252.517   152223941.918         -67.896          36.000    28967252.841   116639170.136         -52.163          38.000  
G13  24752308.319   130074061.328       -4412.962          44.000                                                                  
G15  23503458.143   123511481.414       -3332.889          47.000    23503458.656    96242736.556       -2597.002          45.000  
G17  25482132.608   133909436.803       -4160.303          43.000    25482127.895   104345305.241       -3242.078          41.000  
R14  22570900.199   120315664.618       -2072.717          55.000    22570898.352    93578933.888       -1612.181          49.000  
R17  23184916.916   124067600.523        2808.546          52.000    23184915.490    96497235.206        2184.355          50.000  
R05  22397722.148   119728690.071       -1657.593          50.000    22397720.510    93122327.085       -1289.264          50.000  
R04  23443162.777   125536980.636       -4634.872          49.000    23443165.855    97639870.188       -3604.916          48.000  
G19  23900526.735   125598293.853       -3312.971          46.000                                                                  
G06  25447772.101   133729120.309        1031.146          44.000    25447773.855   104204554.480         803.308          42.000  
S31  40390683.402   212254535.348        -769.891          44.000  
E03  28550215.165   150032371.268        1424.983          35.000    28550215.499   114959936.863        1092.208          32.000  
R15  22221056.863   118742801.843         173.688          53.000    22221053.814    92355681.818         135.083          50.000  
R24  22712667.397   121455161.420        -632.288          49.000    22712664.188    94465145.150        -491.943          49.000  
E31  27276548.929   143339258.827       -2569.125          43.000    27276549.844   109831417.281       -1968.395          45.000  
E09  26839835.426   141044262.276       -3396.198          46.000    26839842.196   108072884.776       -2602.342          52.000  
G11  26217095.552   137771935.182        1883.075          44.000    26217110.955   107354869.833        1467.367          45.000  
E24  25474383.949   133868902.968       -1039.477          49.000    25474383.121   102574931.367        -796.575          52.000  
G24  22286157.856   117114654.778         269.141          48.000    22286155.971    91258243.137         209.698          46.000  
G12  23046821.824   121112149.235          72.928          47.000    23046818.211    94373224.597          56.708          44.000  
E05  24198411.683   127163586.374        -920.180          47.000    24198414.953    97437074.854        -704.987          50.000  
G25  24765788.492   130145248.232        1163.744          45.000    24765789.453   101411935.449         906.652          42.000  
E10  29503445.065   155041668.307        1869.081          45.000    29503477.535   118798286.168        1432.143          46.000  
E25  27438311.135   144189537.448         705.054          46.000    27438315.938   110483029.996         540.164          48.000  
E12  29012290.920   152460870.658        1619.771          41.000    29012295.879   116820855.765        1241.134          43.000  
E14  20397329.650   107188793.159         165.520          49.000    20397332.411    82131716.466         126.830          53.000  
> 2024 04 14 23 50 30.0050000  0 27                     
S33  41347380.464   217282023.521        -770.566          42.000  
E33  28967679.254   152226171.097         -80.375          39.000    28967676.020   116640878.245         -61.796          37.000  
G13  24777519.232   130206537.697       -4418.574          44.000                                                                  
G15  23522516.267   123611633.549       -3343.782          47.000    23522516.584    96320776.937       -2605.394          44.000  
G17  25505907.258   134034373.473       -4168.615          43.000    25505902.309   104442658.475       -3247.955          38.000  
R14  22582575.820   120377904.617       -2076.500          54.000    22582574.361    93627342.790       -1614.944          50.000  
R17  23169205.128   123983530.464        2796.265          52.000    23169205.075    96431847.676        2174.847          49.000  
R05  22407097.764   119778808.603       -1683.399          51.000    22407097.144    93161308.093       -1309.339          50.000  
R04  23469154.264   125676170.061       -4644.160          48.000    23469159.373    97748127.863       -3612.094          47.000  
G19  23919479.101   125697888.790       -3326.543          45.000                                                                  
G06  25441919.352   133698361.701        1019.800          46.000    25441920.517   104180586.864         794.525          43.000  
S31  40395079.540   212277637.647        -770.004          44.000  
E03  28542101.921   149989745.760        1416.580          34.000    28542103.627                        1085.362          30.000  
R15  22220094.134   118737655.037         169.580          53.000    22220090.775    92351678.798         131.934          50.000  
R24  22716290.473   121474532.217        -658.721          50.000    22716286.483    94480211.348        -512.373          49.000  
E31  27291213.341   143416330.656       -2568.823          41.000    27291215.948   109890472.327       -1968.445          44.000  
E09  26859244.616   141146257.036       -3403.219          46.000    26859251.232   108151036.405       -2607.732          51.000  
G11  26206346.554   137715457.371        1882.395          43.000    26206360.837   107310862.948        1466.520          43.000  
E24  25480328.821   133900148.939       -1043.381          48.000    25480329.015   102598873.103        -799.398          52.000  
G24  22284651.903   117106742.836         258.588          47.000    22284650.338    91252077.978         201.447          45.000  
G12  23046428.663   121110084.011          64.971          48.000    23046424.675    94371615.390          50.720          44.000  
E05  24203705.144   127191400.583        -934.064          48.000    24203707.878    97458387.008        -715.747          50.000  
G25  24759158.105   130110407.696        1158.965          45.000    24759158.855   101384787.168         902.962          42.000  
E10  29492769.116   154985565.986        1871.228          44.000    29492801.083   118755299.441        1433.732          47.000  
E25  27434298.265   144168450.304         701.025          45.000    27434303.199   110466872.431         537.072          49.000  
E12  29003052.430   152412322.895        1616.997          42.000    29003056.876   116783657.301        1238.753          43.000  
E14  20396494.227   107184404.337         127.139          49.000    20396497.232    82128353.769          97.468          53.000  
> 2024 04 14 23 51 00.0050000  0 27                     
S33  41351778.663   217305136.357        -769.959          42.000  
E33  28968174.075   152228775.162         -92.611          39.000    28968172.078   116642873.646         -71.150          39.000  
G13  24802759.709   130339172.703       -4423.730          44.000                                                                  
G15  23541635.365   123712106.508       -3354.269          47.000    23541637.091    96399067.297       -2613.725          45.000  
G17  25529727.572   134159548.147       -4176.099          43.000    25529722.123   104540197.265       -3254.642          37.000  
R14  22594271.883   120440251.024       -2079.818          54.000    22594270.841    93675834.429       -1617.626          49.000  
R17  23153562.028   123899823.535        2784.341          51.000    23153561.949    96366742.611        2165.585          49.000  
R05  22416616.930   119829693.951       -1708.734          50.000    22416616.240    93200885.520       -1328.998          50.000  
R04  23495198.837   125815626.740       -4652.675          50.000    23495202.938    97856593.364       -3618.768          48.000  
G19  23938505.700   125797874.646       -3339.198          45.000                                                                  
G06  25436129.316   133667933.910        1008.881          45.000    25436130.270   104156877.031         785.992          43.000  
S31  40399474.725   212300734.851        -769.542          44.000  
E03  28534039.565   149947373.364        1408.043          36.000    28534041.661                        1079.032          30.000  
R15  22219152.416   118732625.674         165.900          52.000    22219149.180    92347767.129         129.004          50.000  
R24  22720059.866   121494689.335        -684.836          50.000    22720054.748    94495889.153        -532.740          48.000  
E31  27305879.064   143493393.463       -2568.565          42.000    27305880.956   109949520.480       -1968.072          45.000  
E09  26878693.856   141248458.334       -3409.890          46.000    26878699.657   108229346.264       -2612.861          51.000  
G11  26195602.164   137659000.793        1881.656          43.000    26195615.812   107266872.553        1466.122          43.000  
E24  25486295.910   133931506.877       -1046.973          48.000    25486296.338   102622900.656        -802.287          52.000  
G24  22283205.784   117099145.394         248.071          47.000    22283204.351    91246157.893         193.427          45.000  
G12  23046079.823   121108250.187          57.465          49.000    23046075.851    94370186.487          44.694          44.000  
E05  24209078.306   127219632.062        -947.901          48.000    24209080.154    97480018.885        -726.276          50.000  
G25  24752553.948   130075705.314        1154.719          44.000    24752555.361   101357746.555         899.749          42.000  
E10  29482079.161   154929392.722        1873.817          44.000    29482110.911   118712258.481        1435.667          47.000  
E25  27430307.638   144147480.977         697.132          45.000    27430312.800   110450805.171         534.104          49.000  
E12  28993830.676   152363864.958        1613.939          41.000    28993834.913   116746527.644        1236.495          42.000  
E14  20395877.328   107181157.777          89.446          50.000    20395879.228    82125866.287          68.432          53.000  
> 2024 04 14 23 51 30.0050000  0 27                     
S33  41356174.709   217328237.098        -770.064          42.000  
E33  28968739.884   152231748.090        -105.507          39.000    28968738.531   116645151.619         -80.777          40.000  
G13  24828028.775   130471956.619       -4428.639          43.000                                                                  
G15  23560815.214   123812890.196       -3364.719          49.000    23560815.364    96477599.791       -2621.848          44.000  
G17  25553591.244   134284950.815       -4183.997          42.000    25553584.810   104637913.583       -3259.742          36.000  
R14  22605986.398   120502697.456       -2083.245          54.000    22605985.085    93724403.878       -1620.300          49.000  
R17  23137986.048   123816477.164        2772.112          50.000    23137985.537    96301917.967        2155.906          48.000  
R05  22426277.930   119881337.008       -1734.058          51.000    22426276.902    93241052.311       -1348.669          50.000  
R04  23521288.608   125955338.998       -4661.306          49.000    23521293.233    97965257.602       -3625.341          48.000  
G19  23957604.693   125898241.767       -3351.805          44.000                                                                  
G06  25430401.585   133637832.619         997.742          46.000    25430401.551   104133421.592         777.710          42.000  
S31  40403867.200   212323818.820        -769.143          44.000  
E03  28526023.066   149905248.538        1399.972          35.000    28526022.493                        1072.791          25.000  
R15  22218231.502   118727706.179         162.158          52.000    22218228.598    92343940.906         126.099          50.000  
R24  22723973.510   121515626.264        -711.027          48.000    22723970.194    94512173.456        -552.933          48.000  
E31  27320540.779   143570439.705       -2568.014          42.000    27320542.565   110008555.903       -1967.627          45.000  
E09  26898179.256   141350857.285       -3416.595          46.000    26898185.839   108307807.566       -2617.785          51.000  
G11  26184860.054   137602561.292        1880.758          42.000    26184874.118   107222895.476        1465.461          44.000  
E24  25492283.668   133962968.799       -1050.432          49.000    25492283.072   102647007.861        -804.854          52.000  
G24  22281819.328   117091857.164         237.659          47.000    22281817.566    91240478.737         185.254          46.000  
G12  23045773.432   121106640.115          49.951          49.000    23045769.902    94368931.931          38.987          45.000  
E05  24214528.156   127248273.650        -961.482          48.000    24214530.487    97501965.029        -736.802          50.000  
G25  24745973.576   130041133.551        1150.133          43.000    24745976.299   101330807.729         896.407          42.000  
E10  29471374.647   154873143.371        1876.037          44.000    29471405.766   118669159.382        1437.607          48.000  
E25  27426337.601   144126621.893         693.573          44.000    27426343.418   110434822.363         531.423          49.000  
E12  28984624.895   152315491.922        1611.028          41.000    28984629.320   116709463.002        1234.451          42.000  
E14  20395474.694   107179046.551          51.543          50.000    20395477.246    82124248.762          39.445          53.000  
> 2024 04 14 23 52 00.0050000  0 27                     
S33  41360569.474   217351333.270        -769.951          42.000  
E33  28969375.257   152235099.740        -118.245          36.000    28969376.759   116647719.804         -90.541          42.000  
G13  24853328.167   130604895.803       -4434.075          44.000                                                                  
G15  23580054.542   123913991.041       -3375.221          48.000    23580054.333    96556379.428       -2630.195          44.000  
G17  25577498.716   134410587.415       -4192.055          42.000    25577492.564   104735812.250       -3266.586          35.000  
R14  22617721.577   120565252.953       -2087.063          53.000    22617720.279    93773058.151       -1623.343          48.000  
R17  23122481.258   123733505.314        2759.365          51.000    23122480.218    96237384.598        2146.162          48.000  
R05  22436083.012   119933744.863       -1759.833          50.000    22436080.087    93281813.888       -1368.658          49.000  
R04  23547428.020   126095311.444       -4670.078          49.000    23547432.899    98074124.199       -3632.282          48.000  
G19  23976777.086   125998996.172       -3365.076          44.000                                                                  
G06  25424737.391   133608069.630         986.603          45.000    25424737.577   104110229.752         768.811          43.000  
S31  40408259.092   212346899.036        -769.486          44.000  
E03  28518055.695   149863381.887        1391.160          35.000    28518061.312                3       1065.468          23.000  
R15  22217332.840   118722905.487         158.038          52.000    22217329.627    92340207.072         122.882          50.000  
R24  22728036.738   121537352.330        -737.497          49.000    22728032.814    94529071.585        -573.587          48.000  
E31  27335200.811   143647477.931       -2567.984          42.000    27335202.863   110067585.183       -1967.611          45.000  
E09  26917704.300   141453461.138       -3423.516          45.000    26917710.706   108386425.889       -2623.304          51.000  
G11  26174125.095   137546150.856        1879.758          43.000    26174138.463   107178940.999        1464.794          45.000  
E24  25498292.407   133994542.919       -1054.418          49.000    25498291.413   102671201.044        -807.966          52.000  
G24  22280493.650   117084888.875         226.666          48.000    22280491.719    91235048.906         176.666          45.000  
G12  23045510.832   121105261.570          41.956          48.000    23045507.085    94367857.761          32.733          45.000  
E05  24220058.011   127277334.348        -975.831          48.000    24220060.598    97524232.300        -747.712          50.000  
G25  24739421.754   130006701.079        1145.329          44.000    24739424.129   101303977.438         892.468          41.000  
E10  29460656.535   154816828.894        1878.071          41.000    29460687.875   118626010.488        1439.136          46.000  
E25  27422391.699   144105881.583         689.156          44.000    27422396.752   110418930.547         528.119          49.000  
E12  28975437.142   152267214.965        1607.293          40.000    28975442.795   116672472.011        1231.648          43.000  
E14  20395291.765   107178079.855          12.890          50.000    20395293.152    82123508.191           9.947          53.000  
> 2024 04 14 23 52 30.0050000  0 27                     
S33  41364965.395   217374434.055        -769.777          42.000  
E33  28970087.055   152238839.000        -130.634          36.000    28970088.264   116650585.003        -100.211          42.000  
G13  24878657.122   130737994.992       -4439.098          44.000                                                                  
G15  23599355.127   124015414.234       -3385.784          48.000    23599354.402    96635410.230       -2638.252          43.000  
G17  25601452.376   134536462.661       -4199.454          41.000    25601446.025   104833896.804       -3272.000          34.000  
R14  22629478.828   120627925.679       -2090.725          52.000    22629478.512    93821803.567       -1626.090          49.000  
R17  23107048.426   123650920.629        2746.584          52.000    23107047.193    96173152.365        2136.245          49.000  
R05  22446031.485   119986923.117       -1785.120          51.000    22446028.504    93323174.718       -1388.519          50.000  
R04  23573617.864   126235547.022       -4678.585          51.000    23573621.840    98183195.426       -3638.777          47.000  
G19  23996024.611   126100143.025       -3377.999          44.000                                                                  
G06  25419139.890   133578655.541         974.817          44.000    25419140.867   104087309.783         759.717          44.000  
S31  40412652.042   212369983.109        -769.477          44.000  
E03  28510138.227   149821782.819        1382.058          35.000    28510159.808                3       1059.874          26.000  
R15  22216457.601   118718231.591         154.022          51.000    22216455.271    92336571.872         119.757          49.000  
R24  22732250.588   121559876.667        -763.917          50.000    22732245.574    94546590.568        -594.093          49.000  
E31  27349860.925   143724515.547       -2567.770          42.000    27349861.791   110126614.043       -1967.355          44.000  
E09  26937269.993   141556275.999       -3430.393          45.000    26937276.113   108465205.871       -2628.491          51.000  
G11  26163397.102   137489780.254        1878.588          43.000    26163409.393   107135017.568        1463.568          44.000  
E24  25504323.337   134026236.272       -1058.188          50.000    25504322.216   102695485.583        -810.777          52.000  
G24  22279230.446   117078250.172         215.997          48.000    22279228.168    91229875.903         168.353          45.000  
G12  23045294.276   121104121.415          34.222          49.000    23045290.020    94366969.378          26.716          45.000  
E05  24225669.450   127306821.892        -989.834          47.000    24225671.888    97546826.618        -758.419          50.000  
G25  24732897.531   129972415.323        1140.591          44.000    24732899.220   101277261.446         888.808          41.000  
E10  29449928.894   154760459.128        1880.187          41.000    29449959.640   118582819.342        1440.659          46.000  
E25  27418468.195   144085267.373         685.310          43.000    27418473.920   110403135.369         525.113          49.000  
E12  28966270.799   152219043.981        1604.126          40.000    28966275.653   116635562.254        1229.068          44.000  
E14  20395326.548   107178265.551         -25.057          50.000    20395328.287    82123650.626         -19.184          53.000  
> 2024 04 14 23 53 00.0050000  0 27                     
S33  41369363.034   217397542.543        -770.444          43.000  
E33  28970874.689   152242972.125        -144.265          37.000    28970874.720   116653751.932        -110.490          43.000  
G13  24904017.208   130871257.076       -4444.623          43.000                                                                  
G15  23618716.946   124117161.986       -3396.925          48.000    23618716.693    96714693.938       -2646.896          42.000  
G17  25625451.357   134662579.230       -4207.916          40.000    25625445.570   104932169.500       -3279.343          33.000  
R14  22641259.571   120690720.903       -2095.084          53.000    22641257.827    93870644.331       -1629.435          49.000  
R17  23091687.689   123568732.996        2733.109          51.000    23091688.281    96109228.956        2125.624          49.000  
R05  22456122.718   120040875.183       -1811.157          49.000    22456121.019    93365137.361       -1408.655          49.000  
R04  23599855.784   126376046.557       -4687.508          51.000    23599859.883    98292471.902       -3645.789          45.000  
G19  24015349.057   126201684.954       -3391.063          45.000                                                                  
G06  25413610.989   133549598.314         962.817          44.000    25413611.564   104064667.906         750.134          45.000  
S31  40417046.396   212393075.550        -770.030          43.000  
E03  28502274.072   149780458.142        1372.929          35.000                                                                  
R15  22215607.821   118713689.804         149.353          52.000    22215605.674    92333039.403         116.211          50.000  
R24  22736611.936   121583204.853        -790.930          49.000    22736608.120    94564734.729        -615.015          48.000  
E31  27364520.487   143801557.429       -2568.108          40.000    27364522.799   110185646.097       -1967.716          45.000  
E09  26956876.988   141659305.365       -3437.722          46.000    26956881.916   108544150.208       -2634.182          50.000  
G11  26152677.480   137433457.754        1876.515          42.000    26152688.620   107091131.564        1462.202          43.000  
E24  25510377.637   134058053.356       -1062.561          49.000    25510376.815   102719864.917        -814.157          52.000  
G24  22278031.661   117071948.114         204.504          48.000    22278029.456    91224965.188         159.344          45.000  
G12  23045123.710   121103224.531          25.963          49.000    23045119.115    94366270.551          20.052          44.000  
E05  24231363.806   127336741.451       -1004.427          48.000    24231365.388    97569751.963        -769.531          50.000  
G25  24726402.166   129938281.145        1135.518          45.000    24726403.350   101250663.534         884.810          40.000  
E10  29439191.556   154704041.260        1881.634          41.000    29439222.469   118539591.461        1441.592          47.000  
E25  27414571.331   144064784.072         680.666          45.000    27414575.694   110387440.485         521.534          49.000  
E12  28957125.620   152170986.491        1600.239          40.000    28957130.768   116598739.419        1226.162          44.000  
E14  20395581.107   107179608.855         -64.071          49.000    20395584.006    82124680.056         -48.972          53.000  
> 2024 04 14 23 53 30.0050000  0 27                     
S33  41373760.419   217420650.946        -769.989          43.000  
E33  28971733.743   152247489.630        -156.918          38.000    28971734.852   116657213.412        -120.253          43.000  
G13  24929405.913   131004668.610       -4449.395          43.000                                                                  
G15  23638137.806   124219221.336       -3406.987          46.000    23638137.634    96794220.428       -2654.685          42.000  
G17  25649494.005   134788923.557       -4215.269          40.000    25649488.230   105030619.592       -3284.101          32.000  
R14  22653060.194   120753628.691       -2098.678          53.000    22653059.375    93919572.601       -1632.363          49.000  
R17  23076403.259   123486936.629        2720.010          52.000    23076401.663    96045609.832        2115.618          48.000  
R05  22466357.951   120095588.405       -1836.463          50.000    22466356.105    93407692.037       -1428.253          49.000  
R04  23626140.431   126516794.729       -4695.684          51.000    23626144.042    98401941.786       -3652.210          45.000  
G19  24034743.467   126303609.112       -3403.644          44.000                                                                  
G06  25408147.795   133520890.377         951.129          44.000    25408147.364   104042298.197         740.985          44.000  
S31  40421441.056   212416168.086        -769.761          44.000  
E03  28494460.680   149739398.999        1364.282          34.000                                                                  
R15  22214780.658   118709269.120         145.361          51.000    22214778.103    92329601.106         113.116          49.000  
R24  22741123.061   121607327.189        -817.259          49.000    22741120.128    94583496.619        -635.667          50.000  
E31  27379179.623   143878592.591       -2567.741          40.000    27379182.255   110244673.067       -1967.368          45.000  
E09  26976520.409   141762537.023       -3444.444          45.000    26976526.370   108623249.567       -2639.150          50.000  
G11  26141966.371   137377175.933        1875.379          43.000    26141976.955   107047277.239        1461.460          43.000  
E24  25516453.036   134089982.930       -1066.111          49.000    25516452.838   102744330.457        -816.934          52.000  
G24  22276894.427   117065974.024         193.707          48.000    22276892.728    91220310.065         150.964          45.000  
G12  23044996.924   121102559.204          18.364          48.000    23044992.403    94365752.155          14.415          44.000  
E05  24237137.188   127367082.508       -1018.403          48.000    24237138.970    97593000.307        -780.308          50.000  
G25  24719933.468   129904287.741        1130.850          45.000    24719934.309   101224175.290         881.801          39.000  
E10  29428443.264   154647566.895        1883.570          41.000    29428474.570   118496320.411        1443.104          47.000  
E25  27410693.592   144044420.797         676.666          43.000    27410700.645   110371837.564         518.539          49.000  
E12  28948000.920   152123034.221        1596.644          41.000    28948005.441   116561997.215        1223.251          44.000  
E14  20396055.131   107182099.258        -102.016          50.000    20396058.021    82126588.437         -78.146          53.000  
> 2024 04 14 23 54 00.0050000  0 27                     
S33  41378159.068   217443767.556        -770.899          42.000  
E33  28972669.250   152252402.684        -170.415          39.000    28972668.981   116660977.967        -130.458          43.000  
G13  24954823.990   131138237.128       -4454.791          43.000                                                                  
G15  23657619.426   124321599.666       -3417.854          46.000    23657619.263    96873995.500       -2663.115          42.000  
G17  25673581.141   134915502.937       -4223.140          39.000    25673576.154   105129252.840       -3290.246          33.000  
R14  22664886.001   120816659.514       -2102.952          53.000    22664882.996    93968596.610       -1635.706          49.000  
R17  23061193.685   123405546.538        2706.273          52.000    23061190.963    95982306.687        2104.958          48.000  
R05  22476737.754   120151071.005       -1862.177          51.000    22476735.926    93450845.102       -1448.352          49.000  
R04  23652471.805   126657797.319       -4704.184          51.000    23652476.672    98511609.497       -3658.808          46.000  
G19  24054212.788   126405922.900       -3416.958          42.000                                                                  
G06  25402753.781   133492544.666         939.014          42.000    25402752.614   104020210.720         731.702          44.000  
S31  40425836.609   212439267.874        -770.258          44.000  
E03  28486700.402   149698617.256        1354.624          33.000                                                                  
R15  22213978.054   118704980.254         140.942          52.000    22213975.050    92326265.358         109.680          49.000  
R24  22745783.364   121632254.188        -844.143          48.000    22745780.746    94602884.331        -656.619          49.000  
E31  27393836.696   143955630.955       -2568.016          37.000    27393842.428   110303702.502       -1967.665          45.000  
E09  26996204.620   141865979.450       -3451.528          45.000    26996211.055   108702510.413       -2644.614          50.000  
G11  26131266.450   137320948.012        1873.534          44.000    26131276.553   107003464.862        1459.752          43.000  
E24  25522552.445   134122034.445       -1070.329          49.000    25522552.002   102768889.426        -820.116          52.000  
G24  22275822.423   117060339.942         182.227          49.000    22275820.177    91215919.876         141.943          45.000  
G12  23044916.344   121102135.281          10.137          49.000    23044911.685    94365421.846           8.130          45.000  
E05  24242992.867   127397855.181       -1032.805          48.000    24242994.853    97616579.369        -791.401          51.000  
G25  24713492.320   129870444.935        1125.585          44.000    24713494.403   101197804.431         877.349          41.000  
E10  29417687.318   154591048.222        1884.739          41.000    29417717.767   118453015.488        1444.051          47.000  
E25  27406844.708   144024187.251         672.428          44.000    27406850.413   110356334.053         515.217          50.000  
E12  28938898.600   152075199.445        1592.413          42.000    28938901.845   116525344.984        1220.269          43.000  
E14  20396749.140   107185746.839        -140.839          50.000    20396751.838    82129383.470        -107.906          53.000  
> 2024 04 14 23 54 30.0050000  0 27                     
S33  41382559.731   217466894.612        -771.079          43.000  
E33  28973679.505   152257713.054        -183.711          39.000    28973679.254   116665047.007        -140.666          42.000  
G13  24980272.435   131271961.026       -4459.924          43.000                                                                  
G15  23677162.370   124424295.245       -3428.396          47.000    23677162.648    96954017.763       -2671.588          42.000  
G17  25697712.432   135042315.638       -4230.785          38.000    25697708.393   105228067.945       -3296.963          33.000  
R14  22676733.119   120879814.162       -2107.100          53.000    22676731.582    94017716.865       -1638.975          49.000  
R17  23046060.921   123324568.291        2692.389          52.000    23046057.857    95919323.894        2093.997          48.000  
R05  22487260.392   120207321.592       -1887.700          51.000    22487259.317    93494595.501       -1468.300          50.000  
R04  23678850.898   126799050.174       -4712.468          51.000    23678855.205    98621471.804       -3665.381          46.000  
G19  24073756.531   126508624.334       -3429.697          41.000                                                                  
G06  25397428.529   133464564.697         926.581          43.000    25397428.407   103998408.276         721.930          43.000  
S31  40430234.350   212462378.422        -770.570          44.000  
E03  28478983.084                        1344.981          31.000    28478987.975                        1030.524          27.000  
R15  22213200.004   118700823.890         136.389          51.000    22213197.181    92323032.667         106.116          49.000  
R24  22750597.178   121657986.951        -871.147          50.000    22750592.273    94622898.745        -677.626          49.000  
E31  27408500.054   144032672.897       -2567.867          39.000    27408502.859   110362734.645       -1967.754          44.000  
E09  27015929.314   141969631.710       -3458.446          45.000    27015935.595   108781932.049       -2650.077          50.000  
G11  26120575.541   137264777.745        1871.369          44.000    26120585.545   106959697.415        1458.184          42.000  
E24  25528674.646   134154207.954       -1074.428          49.000    25528674.575   102793541.887        -823.269          52.000  
G24  22274815.534   117055048.458         170.605          49.000    22274813.003    91211796.631         133.099          45.000  
G12  23044881.356   121101952.797           2.025          48.000    23044876.776    94365279.670           1.616          45.000  
E05  24248930.351   127429060.247       -1047.406          47.000    24248932.997    97640489.724        -802.578          51.000  
G25  24707080.947   129836753.225        1120.622          44.000    24707084.276   101171551.299         873.002          41.000  
E10  29406924.642   154534488.030        1886.172          43.000    29406953.183   118409678.845        1445.075          47.000  
E25  27403020.371   144004083.873         667.949          45.000    27403024.895   110340930.279         511.807          50.000  
E12  28929818.951   152027485.224        1588.449          42.000    28929822.239   116488785.127        1217.162          44.000  
E14  20397663.512   107190552.085        -179.432          50.000    20397666.059    82133065.553        -137.596          53.000  
> 2024 04 14 23 55 00.0050000  0 27                     
S33  41386961.513   217490024.809        -771.032          43.000  
E33  28974763.916   152263416.551        -196.601          39.000    28974764.773   116669417.311        -150.716          43.000  
G13  25005748.911   131405832.139       -4464.974          43.000                                                                  
G15  23696763.673   124527300.264       -3438.506          46.000    23696764.133    97034281.126       -2679.585          42.000  
G17  25721886.771   135169353.592       -4238.564          35.000    25721884.498                       -3303.913          31.000  
R14  22688602.497   120943088.179       -2111.082          52.000    22688601.455    94066929.986       -1642.043          50.000  
R17  23031004.775   123244001.342        2678.724          52.000    23031002.167    95856660.982        2083.414          49.000  
R05  22497925.246   120264332.590       -1913.002          50.000    22497925.053    93538937.319       -1487.989          50.000  
R04  23705274.457   126940543.903       -4720.331          50.000    23705279.544    98731521.432       -3671.422          45.000  
G19  24093371.806   126611705.743       -3441.912          41.000                                                                  
G06  25392173.579   133436948.243         914.362          43.000    25392173.853   103976889.026         712.604          44.000  
S31  40434632.947   212485492.769        -770.450          44.000  
E03  28471335.935                        1336.598          29.000    28471332.473                        1024.387          28.000  
R15  22212446.266   118696794.920         132.257          52.000    22212443.286    92319899.084         102.789          50.000  
R24  22755558.421   121684521.329        -897.758          49.000    22755554.547    94643536.593        -698.342          49.000  
E31  27423157.399   144109713.001       -2567.836          37.000    27423163.097   110421765.406       -1967.821          44.000  
E09  27035692.512   142073487.043       -3465.316          45.000    27035698.680   108861509.256       -2655.173          49.000  
G11  26109896.141   137208663.237        1869.396          45.000    26109905.995   106915973.298        1456.736          40.000  
E24  25534818.881   134186497.636       -1078.312          48.000    25534819.196   102818283.368        -826.294          52.000  
G24  22273873.638   117050096.304         159.265          49.000    22273870.412    91207937.828         124.091          45.000  
G12  23044890.360   121102005.717          -5.631          48.000    23044887.037    94365320.942          -4.333          45.000  
E05  24254949.854   127460692.485       -1061.597          47.000    24254952.900    97664727.381        -813.354          51.000  
G25  24700697.375   129803207.146        1115.658          45.000    24700700.819   101145411.588         869.376          43.000  
E10  29396153.117   154477883.263        1887.496          43.000    29396180.346   118366308.133        1446.132          47.000  
E25  27399217.833   143984105.097         663.900          46.000    27399223.070   110325621.980         508.639          50.000  
E12  28920760.363   151979888.720        1584.583          41.000    28920764.578   116452315.487        1214.202          44.000  
E14  20398797.328   107196509.672        -217.676          50.000    20398800.055    82137630.606        -166.854          53.000  
> 2024 04 14 23 55 30.0050000  0 27                     
S33  41391363.206   217513156.689        -771.067          43.000  
E33  28975925.340   152269510.964        -209.754          40.000    28975924.488   116674087.081        -160.778          43.000  
G13  25031252.034   131539844.530       -4469.477          43.000                                                                  
G15  23716422.832   124630608.425       -3448.728          47.000    23716423.370    97114780.662       -2687.336          43.000  
G17  25746101.600   135296610.534       -4245.713          32.000    25746100.108                       -3308.635          28.000  
R14  22700493.656   121006478.640       -2115.019          51.000    22700492.820    94116233.674       -1645.005          50.000  
R17  23016025.364   123163846.969        2664.872          52.000    23016023.613    95794318.937        2072.570          49.000  
R05  22508731.390   120322098.805       -1938.205          51.000    22508731.206    93583866.540       -1507.337          50.000  
R04  23731741.613   127082270.166       -4728.061          50.000    23731747.128    98841751.854       -3677.251          45.000  
G19  24113058.725   126715161.049       -3454.737          43.000                                                                  
G06  25386987.347   133409694.615         902.331          42.000    25386988.348   103955652.531         703.119          44.000  
S31  40439031.559   212508609.024        -770.720          44.000  
E03  28463729.277                        1327.212          30.000    28463731.355                3       1017.528          30.000  
R15  22211716.091   118692889.569         128.088          52.000    22211712.348    92316861.637          99.542          50.000  
R24  22760668.831   121711853.849        -924.377          48.000    22760665.704    94664795.256        -718.981          48.000  
E31  27437817.032   144186747.547       -2567.718          37.000    27437820.898   110480791.878       -1967.461          42.000  
E09  27055492.996   142177540.297       -3471.822          45.000    27055499.645   108941238.132       -2660.117          49.000  
G11  26099227.439   137152604.073        1867.646          46.000    26099237.080   106872292.333        1455.214          40.000  
E24  25540984.684   134218899.477       -1081.969          48.000    25540984.938   102843110.765        -829.042          52.000  
G24  22272995.822   117045481.951         148.254          50.000    22272992.278    91204342.229         115.460          45.000  
G12  23044945.128   121102290.144         -13.364          48.000    23044941.422    94365542.652         -10.411          46.000  
E05  24261050.334   127492748.489       -1075.578          47.000    24261053.015    97689289.739        -824.205          51.000  
G25  24694340.909   129769802.971        1111.133          46.000    24694343.966   101119382.513         865.838          43.000  
E10  29385370.334   154421232.599        1888.984          42.000    29385398.095   118322902.331        1447.291          47.000  
E25  27395439.344   143964247.166         659.749          46.000    27395443.997   110310406.257         505.531          50.000  
E12  28911723.750   151932408.691        1580.695          40.000    28911728.408   116415935.090        1211.078          44.000  
E14  20400150.073   107203615.854        -256.096          50.000    20400152.187    82143075.721        -196.236          53.000  
> 2024 04 14 23 56 00.0060000  0 27                     
S33  41395765.829   217536293.245        -771.212          42.000  
E33  28977158.800   152275998.291        -222.811          39.000    28977159.393   116679057.930        -170.637          45.000  
G13  25056782.400   131674001.088       -4474.012          43.000                                                                  
G15  23736139.974   124734221.589       -3458.754          47.000    23736141.389    97195517.891       -2695.006          44.000  
G17  25770357.208   135424088.871       -4253.034          31.000    25770357.068                       -3313.757          26.000  
R14  22712408.477   121069988.669       -2118.945          52.000    22712408.199    94165630.334       -1648.029          50.000  
R17  23001124.603   123084108.407        2650.852          52.000    23001122.857    95732300.300        2061.627          50.000  
R05  22519680.048   120380620.505       -1963.245          51.000    22519678.315    93629383.369       -1526.935          49.000  
R04  23758254.710   127224230.116       -4735.622          51.000    23758257.902    98952163.969       -3683.342          47.000  
G19  24132817.433   126818992.226       -3466.948          41.000                                                                  
G06  25381870.850   133382806.756         890.222          42.000    25381871.533   103934701.036         693.565          44.000  
S31  40443431.129   212531728.159        -770.632          44.000  
E03  28456193.763                        1317.776          30.000    28456185.370   114581247.7731       1009.961          33.000  
R15  22211008.241   118689109.276         123.913          52.000    22211005.056    92313921.455          96.411          49.000  
R24  22765931.423   121739986.971        -951.208          49.000    22765926.666    94686676.595        -739.954          47.000  
E31  27452478.184   144263779.789       -2567.818          39.000    27452479.668   110539816.576       -1967.469          42.000  
E09  27075332.022   142281794.285       -3478.311          45.000    27075338.572   109021120.791       -2665.204          49.000  
G11  26088570.100   137096602.573        1865.601          46.000    26088578.523   106828656.219        1453.464          41.000  
E24  25547172.087   134251414.770       -1085.523          48.000    25547172.316   102868025.106        -831.773          52.000  
G24  22272182.087   117041208.071         136.698          50.000    22272178.522    91201011.948         106.418          44.000  
G12  23045043.539   121102806.187         -21.137          48.000    23045040.524    94365944.814         -16.470          46.000  
E05  24267231.893   127525230.185       -1089.795          48.000    24267233.956    97714178.301        -835.081          51.000  
G25  24688011.612   129736540.312        1106.304          46.000    24688013.010   101093463.682         862.086          42.000  
E10  29374580.846   154364537.241        1890.345          43.000    29374607.190   118279462.331        1448.436          46.000  
E25  27391683.204   143944509.948         655.760          46.000    27391687.932   110295283.042         502.493          49.000  
E12  28902712.100   151885046.812        1576.731          42.000    28902715.826   116379645.200        1208.027          44.000  
E14  20401720.389   107211871.427        -294.407          50.000    20401722.995    82149401.555        -225.557          53.000  
> 2024 04 14 23 56 30.0060000  0 27                     
S33  41400170.480   217559440.112        -771.550          42.000  
E33  28978469.320   152282889.147        -236.211          38.000    28978470.426   116684337.993        -181.111          44.000  
G13  25082339.708   131808300.207       -4479.237          43.000                                                                  
G15  23755915.495   124838140.321       -3468.951          47.000    23755917.112    97276493.217       -2703.018          44.000  
G17  25794656.727   135551787.480       -4260.503          28.000    25794643.127                3      -3322.624          22.000  
R14  22724347.200   121133624.731       -2123.224          52.000    22724345.770    94215125.049       -1651.434          51.000  
R17  22986303.923   123004805.665        2636.306          52.000    22986303.782    95670620.644        2050.321          49.000  
R05  22530769.433   120439901.876       -1988.556          50.000    22530767.919    93675491.046       -1546.625          48.000  
R04  23784807.872   127366420.022       -4743.347          48.000    23784811.673    99062754.895       -3689.327          47.000  
G19  24152647.580   126923200.039       -3479.740          42.000                                                                  
G06  25376826.956   133356299.169         877.435          42.000    25376828.056   103914045.897         683.494          44.000  
S31  40447832.415   212554858.799        -771.047          44.000  
E03  28448700.908                        1307.824          30.000    28448692.971   114551069.654        1002.359          35.000  
R15  22210326.565   118685464.270         119.422          52.000    22210322.561    92311086.489          92.884          49.000  
R24  22771343.312   121768929.292        -978.107          49.000    22771340.141    94709187.338        -760.724          49.000  
E31  27467137.319   144340814.290       -2567.944          39.000    27467138.982   110598843.006       -1967.648          43.000  
E09  27095210.553   142386250.311       -3485.198          46.000    27095216.444   109101158.267       -2670.505          50.000  
G11  26077925.476   137040675.473        1863.136          45.000    26077935.799   106785078.092        1451.897          43.000  
E24  25553382.597   134284050.730       -1089.740          48.000    25553382.853   102893031.890        -835.000          52.000  
G24  22271435.477   117037286.836         124.877          49.000    22271432.840    91197956.422          97.307          45.000  
G12  23045187.699   121103563.055         -29.147          48.000    23045184.120    94366534.615         -22.797          46.000  
E05  24273494.564   127558145.345       -1104.314          47.000    24273497.603    97739398.999        -846.205          51.000  
G25  24681710.604   129703431.077        1101.028          46.000    24681712.380   101067664.427         858.118          43.000  
E10  29363783.932   154307813.060        1891.381          43.000    29363811.273   118236000.263        1449.196          46.000  
E25  27387952.079   143924904.399         651.405          45.000    27387956.999   110280260.725         499.086          49.000  
E12  28893724.720   151837818.438        1572.262          42.000    28893728.254   116343457.577        1204.543          45.000  
E14  20403511.778   107221285.347        -333.053          50.000    20403513.770    82156614.949        -255.218          52.000  
> 2024 04 14 23 57 00.0060000  0 27                     
S33  41404576.898   217582594.542        -772.057          42.000  
E33  28979858.102   152290180.469        -249.775          39.000    28979857.993   116689924.866        -191.374          45.000  
G13  25107924.300   131942739.539       -4483.582          42.000                                                                  
G15  23775748.385   124942360.893       -3479.035          47.000    23775749.527    97357703.722       -2711.127          43.000  
G17  25818997.877   135679703.645       -4267.467          28.000    25818980.468                3      -3337.731          18.000  
R14  22736308.592   121197385.048       -2127.570          52.000    22736307.138    94264716.381       -1654.730          50.000  
R17  22971565.379   122925936.694        2621.546          52.000    22971564.681    95609278.328        2039.062          49.000  
R05  22542000.125   120499938.049       -2013.794          50.000    22541999.532    93722185.781       -1566.290          49.000  
R04  23811402.369   127508835.470       -4750.903          47.000    23811408.888    99173521.200       -3695.082          48.000  
G19  24172549.038   127027780.683       -3492.327          44.000                                                                  
G06  25371854.690   133330169.592         864.772          43.000    25371855.104   103893685.272         673.773          43.000  
S31  40452235.942   212577997.626        -771.642          44.000  
E03  28441254.573   149459779.961        1298.549          30.000    28441253.251   114521110.929         994.537          36.000  
R15  22209668.187   118681950.326         114.861          51.000    22209664.802    92308353.472          89.256          49.000  
R24  22776906.398   121798677.901       -1005.060          48.000    22776903.449    94732325.160        -781.689          48.000  
E31  27481797.817   144417849.088       -2567.758          41.000    27481797.763   110657869.662       -1967.633          42.000  
E09  27115125.392   142490905.922       -3491.964          47.000    27115131.716   109181348.688       -2675.600          49.000  
G11  26067295.479   136984819.915        1860.796          44.000    26067304.869   106741555.622        1449.812          43.000  
E24  25559615.341   134316803.547       -1093.733          48.000    25559615.611   102918128.216        -838.051          53.000  
G24  22270755.906   117033715.691         113.052          49.000    22270753.876    91195173.706          88.041          45.000  
G12  23045376.055   121104555.929         -37.165          48.000    23045372.419    94367308.321         -28.842          46.000  
E05  24279839.155   127591490.779       -1118.769          46.000    24279843.303    97764949.378        -857.324          51.000  
G25  24675438.127   129670469.624        1096.156          45.000    24675439.394   101041980.309         854.083          41.000  
E10  29352981.886   154251056.048        1892.472          44.000    29353008.818   118192513.075        1449.911          46.000  
E25  27384244.869   143905425.265         647.119          44.000    27384249.998   110265335.260         495.847          50.000  
E12  28884762.396   151790720.085        1567.804          42.000    28884765.700   116307369.580        1201.213          45.000  
E14  20405522.347   107231853.049        -371.557          50.000    20405524.241    82164712.398        -284.679          52.000  
> 2024 04 14 23 57 30.0060000  0 26                     
S33  41408984.986   217605759.528        -772.315          42.000  
E33  28981322.190   152297874.904        -263.026          40.000    28981322.359   116695820.637        -201.792          44.000  
G13  25133535.034   132077317.978       -4487.852          42.000                                                                  
G15  23795638.881   125046882.296       -3489.005          48.000    23795639.967    97439148.654       -2718.542          43.000  
R14  22748292.504   121261271.560       -2131.451          52.000    22748290.636    94314405.886       -1657.800          50.000  
R17  22956909.560   122847507.665        2607.015          52.000    22956907.634    95548278.235        2027.753          49.000  
R05  22553372.688   120560728.625       -2038.715          50.000    22553371.917    93769467.264       -1585.767          49.000  
R04  23838039.877   127651473.736       -4758.211          45.000    23838046.400    99284460.758       -3700.595          47.000  
G19  24192521.005   127132733.211       -3504.296          45.000                                                                  
G06  25366954.982   133304422.367         851.643          43.000    25366954.880   103873622.596         663.798          42.000  
S31  40456641.079   212601146.336        -771.611          44.000  
E03  28433883.435   149420970.869        1288.595          33.000    28433867.847   114491374.045         987.276          36.000  
R15  22209033.873   118678569.173         110.643          50.000    22209031.957    92305723.741          86.176          48.000  
R24  22782621.053   121829234.716       -1031.860          48.000    22782617.761    94756091.614        -802.496          48.000  
E31  27496456.029   144494885.591       -2567.708          40.000    27496458.098   110716897.607       -1967.466          43.000  
E09  27135079.236   142595761.160       -3498.385          47.000    27135085.377   109261692.046       -2680.533          49.000  
G11  26056680.435   136929040.635        1858.421          44.000    26056688.898   106698092.598        1447.816          44.000  
E24  25565870.384   134349674.180       -1097.502          48.000    25565870.802   102943314.823        -840.937          53.000  
G24  22270143.856   117030498.133         101.531          49.000    22270142.048    91192666.508          79.156          46.000  
G12  23045609.953   121105785.786         -44.823          47.000    23045606.866    94368266.703         -34.895          46.000  
E05  24286267.910   127625267.974       -1132.932          47.000    24286271.020    97790830.573        -868.079          52.000  
G25  24669193.762   129637657.255        1091.445          46.000    24669195.995   101016412.386         850.739          41.000  
E10  29342174.921   154194269.968        1893.500          44.000    29342200.630   118149003.623        1450.717          46.000  
E25  27380561.365   143886073.741         643.121          43.000    27380567.724   110250507.594         492.737          50.000  
E12  28875823.955   151743755.602        1563.351          41.000    28875828.458   116271384.168        1197.938          46.000  
E14  20407753.362   107243575.522        -409.771          49.000    20407755.180    82173694.671        -314.028          52.000  
> 2024 04 14 23 58 00.0060000  0 27                     
S33  41413393.964   217628929.331        -772.518          43.000  
E33  28982863.161   152305968.521        -276.552          40.000    28982862.335   116702022.235        -211.970          44.000  
G13  25159171.919   132212028.213       -4492.517          41.000                                                                  
G15  23815584.999   125151697.057       -3498.767          48.000    23815585.223    97520822.177       -2726.403          43.000  
G17  25867806.648   135936235.4731      -4281.952          27.000                                                                  
R14  22760300.435   121325280.213       -2135.858          51.000    22760299.458    94364190.384       -1661.157          50.000  
R17  22942335.250   122769518.743        2592.124          52.000    22942332.948    95487620.420        2016.065          49.000  
R05  22564884.241   120622265.944       -2063.825          51.000    22564883.478    93817329.571       -1605.127          49.000  
R04  23864715.991   127794325.194       -4765.372          42.000    23864723.103    99395566.095       -3706.299          45.000  
G19  24212561.324   127238050.342       -3516.761          44.000                                                                  
G06  25362126.860   133279055.405         838.808          42.000    25362127.694   103853856.206         653.979          42.000  
S31  40461047.242   212624300.137        -771.960          44.000  
E03  28426550.072                1       1279.652          29.000    28426536.460   114461856.565         979.926          35.000  
R15  22208425.506   118675316.019         106.231          51.000    22208423.327    92303193.550          82.616          49.000  
R24  22788485.482   121860595.051       -1058.740          49.000    22788481.340    94780482.974        -823.523          47.000  
E31  27511117.181   144571918.708       -2567.879          40.000    27511116.628   110775922.939       -1967.609          43.000  
E09  27155069.252   142700809.425       -3505.099          47.000    27155075.762   109342183.302       -2685.612          49.000  
G11  26046078.789   136873335.890        1855.293          44.000    26046087.459   106654687.608        1445.883          44.000  
E24  25572147.346   134382657.104       -1101.410          48.000    25572147.185   102968587.469        -843.888          53.000  
G24  22269598.549   117027631.197          89.501          50.000    22269595.913    91190432.518          69.849          45.000  
G12  23045888.220   121107247.246         -52.706          48.000    23045884.797    94369405.523         -41.201          45.000  
E05  24292776.487   127659471.966       -1147.518          47.000    24292780.011    97817038.800        -879.201          52.000  
G25  24662976.845   129604988.852        1086.490          46.000    24662978.979   100990956.621         846.558          41.000  
E10  29331361.342   154137452.059        1894.278          44.000    29331386.724   118105469.830        1451.456          45.000  
E25  27376903.100   143866844.615         638.622          45.000    27376907.771   110235773.708         489.404          49.000  
E12  28866911.185   151696922.461        1558.591          40.000    28866915.754   116235499.380        1194.268          45.000  
E14  20410202.425   107256447.124        -448.327          50.000    20410204.693    82183557.452        -343.566          53.000  
> 2024 04 14 23 58 30.0060000  0 27                     
S33  41417805.746   217652112.929        -773.344          43.000  
E33  28984479.600   152314470.410        -290.197          38.000    28984480.285   116708536.705        -222.570          43.000  
G13  25184834.077   132346875.542       -4497.156          42.000                                                                  
G15  23835586.798   125256810.773       -3508.949          47.000    23835588.979    97602728.647       -2734.182          45.000  
G17  25892273.244                       -4289.125          27.000                                                                  
R14  22772332.567   121389419.465       -2140.283          52.000    22772331.856    94414076.456       -1664.673          51.000  
R17  22927846.154   122691982.684        2576.739          52.000    22927843.458    95427314.808        2004.135          49.000  
R05  22576536.684   120684556.047       -2088.977          51.000    22576536.621    93865777.389       -1624.744          49.000  
R04  23891435.018   127937393.869       -4772.610          46.000    23891440.585    99506840.310       -3711.918          45.000  
G19  24232672.790   127343737.546       -3529.074          43.000                                                                  
G06  25357373.845   133254079.679         825.957          41.000    25357374.166   103834394.691         643.314          40.000  
S31  40465455.687   212647467.607        -772.245          43.000  
R15  22207842.971   118672199.330         101.432          51.000    22207839.757    92300769.511          78.911          48.000  
R24  22794503.617   121892767.504       -1086.105          49.000    22794497.473    94805506.068        -844.679          47.000  
E31  27525774.130   144648956.243       -2568.340          38.000    27525776.680   110834951.701       -1967.694          43.000  
E09  27175097.783   142806057.213       -3511.775          47.000    27175103.837   109422827.427       -2690.749          49.000  
G11  26035494.215   136817717.089        1852.469          44.000    26035502.341   106611349.488        1443.389          44.000  
E24  25578446.676   134415759.887       -1105.443          48.000    25578446.526   102993951.972        -847.116          53.000  
G24  22269121.423   117025124.888          77.286          50.000    22269118.627    91188479.569          60.474          45.000  
G12  23046211.777   121108947.445         -60.823          47.000    23046208.130    94370730.401         -47.347          45.000  
E05  24299369.115   127694110.848       -1161.968          47.000    24299371.081    97843580.259        -890.339          51.000  
G25  24656790.011   129572472.317        1081.491          46.000    24656791.025   100965619.167         842.430          41.000  
E10  29320543.226   154080612.677        1894.927          44.000    29320568.941   118061919.621        1451.922          45.000  
E25  27373268.132   143847745.691         634.395          44.000    27373273.445   110221139.594         486.019          49.000  
E12  28858026.779   151650231.083        1553.713          40.000    28858030.207   116199723.156        1190.596          45.000  
E14  20412872.126   107270475.282        -486.961          50.000    20412874.238    82194306.407        -373.157          53.000  
E03                                                                  28419262.942   114432565.986         972.240          37.000  
> 2024 04 14 23 59 00.0060000  0 26                     
S33  41422217.380   217675294.943        -772.867          42.000  
E33  28986172.509   152323366.651        -303.129          40.000    28986173.504   116715353.330        -232.160          43.000  
G13  25210518.978   132481842.752       -4500.762          43.000                                                                  
G15  23855642.991   125362205.580       -3517.808          47.000    23855645.750    97684854.109       -2741.031          45.000  
R14  22784386.998   121453674.520       -2143.696          51.000    22784385.979    94464052.637       -1667.507          51.000  
R17  22913439.332   122614889.026        2562.304          52.000    22913437.277    95367353.280        1993.034          50.000  
R05  22588326.719   120747581.158       -2113.104          51.000    22588326.797    93914796.855       -1643.469          49.000  
R04  23918188.017   128080659.778       -4778.766          42.000    23918196.061    99618267.900       -3716.683          45.000  
G19  24252851.100   127449777.071       -3540.561          45.000                                                                  
G06  25352692.828   133229483.016         813.624          41.000    25352693.441   103815228.538         633.757          41.000  
S31  40469863.791   212670633.591        -772.427          44.000  
R15  22207283.250   118669204.279          97.809          52.000    22207279.633    92298440.063          76.111          48.000  
R24  22800666.659   121925736.567       -1112.272          46.000    22800662.874    94831148.690        -865.054          48.000  
E31  27540432.172   144725983.182       -2567.397          39.000    27540435.318   110893972.350       -1967.239          45.000  
E09  27195160.576   142911487.981       -3517.351          47.000    27195166.940   109503611.751       -2695.086          49.000  
G11  26024923.877   136762172.492        1850.215          44.000    26024929.799   106568069.155        1441.900          43.000  
E24  25584765.495   134448967.030       -1108.652          48.000    25584765.459   103019396.436        -849.509          53.000  
G24  22268710.500   117022966.210          66.088          50.000    22268708.256    91186797.483          51.648          46.000  
G12  23046578.157   121110870.817         -67.922          47.000    23046574.145    94372229.150         -52.831          45.000  
E05  24306040.830   127729169.605       -1175.659          48.000    24306042.407    97870443.419        -900.799          51.000  
G25  24650627.985   129540092.474        1077.231          46.000    24650629.167   100940388.275         839.239          41.000  
E10  29309718.354   154023739.062        1896.366          43.000    29309743.934   118018343.199        1452.897          45.000  
E25  27369656.795   143828761.749         630.954          45.000    27369660.499   110206593.566         483.387          49.000  
E12  28849165.749   151603668.884        1549.709          41.000    28849169.122   116164045.912        1187.626          45.000  
E14  20415758.589   107285644.210        -524.772          51.000    20415760.384    82205929.443        -402.073          53.000  
E03                                                                  28412040.787   114403492.262         965.714          36.000  
> 2024 04 14 23 59 30.0060000  0 26                     
S33  41426629.736   217698482.604        -773.157          43.000  
E33  28987942.490   152332664.838        -316.796          39.000    28987942.567   116722477.955        -242.818          44.000  
G13  25236227.760   132616934.120       -4505.274          44.000                                                                  
G15  23875754.448   125467885.504       -3527.611          48.000    23875756.382    97767201.754       -2748.742          45.000  
R14  22796464.501   121518052.689       -2148.200          52.000    22796464.307    94514124.531       -1670.782          51.000  
R17  22899116.270   122538249.292        2546.896          51.000    22899114.544    95307744.823        1980.886          49.000  
R05  22600255.847   120811346.192       -2138.001          50.000    22600254.535    93964391.815       -1662.854          48.000  
R04  23944982.908   128224125.486       -4785.652          44.000    23944988.469    99729850.846       -3722.049          44.000  
G19  24273098.115   127556173.312       -3552.699          46.000                                                                  
G06  25348087.025   133205274.881         800.194          43.000    25348087.581   103796365.151         623.638          41.000  
S31  40474272.998   212693804.555        -772.414          43.000  
E03  28404871.164                        1250.292          27.000    28404876.103   114374641.769         957.579          36.000  
R15  22206746.002   118666337.364          93.310          51.000    22206743.210    92296210.286          72.540          49.000  
R24  22806981.579   121959509.626       -1139.459          47.000    22806980.381    94857416.629        -886.055          49.000  
E31  27555091.423   144803005.968       -2567.462          41.000    27555093.641   110952989.767       -1967.310          47.000  
E09  27215259.703   143017106.697       -3523.927          47.000    27215266.166   109584540.087       -2700.144          50.000  
G11  26014368.769   136706711.961        1847.045          43.000    26014375.141   106524854.306        1439.159          44.000  
E24  25591104.908   134482284.600       -1112.630          47.000    25591105.365   103044925.503        -852.487          52.000  
G24  22268367.302   117021163.710          53.991          49.000    22268365.085    91185392.940          42.046          46.000  
G12  23046987.204   121113023.214         -75.641          47.000    23046983.082    94373906.403         -59.102          45.000  
E05  24312792.958   127764654.768       -1190.162          47.000    24312795.199    97897633.322        -911.886          52.000  
G25  24644494.112   129507855.685        1072.155          46.000    24644494.042   100915268.861         835.246          40.000  
E10  29298890.583   153966840.086        1896.859          44.000    29298914.324   117974747.313        1453.281          45.000  
E25  27366067.816   143809899.056         626.580          46.000    27366071.114   110192140.451         480.186          49.000  
E12  28840331.354   151557244.772        1544.988          40.000    28840335.333   116128474.499        1183.758          46.000  
E14  20418862.656   107301959.571        -563.188          50.000    20418864.978    82218430.923        -431.447          53.000  
